{
  "type": "FeatureCollection",
  "features": [
    {
      "type": "Feature",
      "properties": {
        "name": "Hydaburg, AK"
      },
      "geometry": {
        "type": "Point",
        "coordinates": [
          -132.82314590717277,
          55.20658077208186
        ]
      }
    },
    {
      "type": "Feature",
      "properties": {
        "name": "Port Moller, AK"
      },
      "geometry": {
        "type": "Point",
        "coordinates": [
          -160.57498899712687,
          55.986835223127116
        ]
      }
    },
    {
      "type": "Feature",
      "properties": {
        "name": "Brevig Mission, AK"
      },
      "geometry": {
        "type": "Point",
        "coordinates": [
          -166.4959144627222,
          65.33549439368858
        ]
      }
    },
    {
      "type": "Feature",
      "properties": {
        "name": "Shishmaref, AK"
      },
      "geometry": {
        "type": "Point",
        "coordinates": [
          -166.09708725336503,
          66.24632656932437
        ]
      }
    },
    {
      "type": "Feature",
      "properties": {
        "name": "Valdez, AK"
      },
      "geometry": {
        "type": "Point",
        "coordinates": [
          -146.44456242502804,
          61.136208671875764
        ]
      }
    },
    {
      "type": "Feature",
      "properties": {
        "name": "Port of Alaska, AK"
      },
      "geometry": {
        "type": "Point",
        "coordinates": [
          -149.30475294870703,
          61.09269012841832
        ]
      }
    },
    {
      "type": "Feature",
      "properties": {
        "name": "Petersburg, AK"
      },
      "geometry": {
        "type": "Point",
        "coordinates": [
          -133.0983982924004,
          57.152095194063925
        ]
      }
    },
    {
      "type": "Feature",
      "properties": {
        "name": "Unalaska Island, AK"
      },
      "geometry": {
        "type": "Point",
        "coordinates": [
          -166.54862119031,
          53.934454204433564
        ]
      }
    },
    {
      "type": "Feature",
      "properties": {
        "name": "Point Hope, AK"
      },
      "geometry": {
        "type": "Point",
        "coordinates": [
          -166.68359611311126,
          68.34694072536323
        ]
      }
    },
    {
      "type": "Feature",
      "properties": {
        "name": "Nikiski, AK"
      },
      "geometry": {
        "type": "Point",
        "coordinates": [
          -151.2292734546432,
          60.72984271966423
        ]
      }
    },
    {
      "type": "Feature",
      "properties": {
        "name": "Cordova, AK"
      },
      "geometry": {
        "type": "Point",
        "coordinates": [
          -145.76304122258927,
          60.51829911850349
        ]
      }
    },
    {
      "type": "Feature",
      "properties": {
        "name": "Wales, AK"
      },
      "geometry": {
        "type": "Point",
        "coordinates": [
          -168.0869241763811,
          65.611870554914
        ]
      }
    },
    {
      "type": "Feature",
      "properties": {
        "name": "Port Graham, AK"
      },
      "geometry": {
        "type": "Point",
        "coordinates": [
          -151.83075733964503,
          59.345148864215716
        ]
      }
    },
    {
      "type": "Feature",
      "properties": {
        "name": "Hooper Bay, AK"
      },
      "geometry": {
        "type": "Point",
        "coordinates": [
          -166.1030505677117,
          61.51400626431365
        ]
      }
    },
    {
      "type": "Feature",
      "properties": {
        "name": "Teller, AK"
      },
      "geometry": {
        "type": "Point",
        "coordinates": [
          -166.34341279783513,
          65.25715165752752
        ]
      }
    },
    {
      "type": "Feature",
      "properties": {
        "name": "Port Heiden, AK"
      },
      "geometry": {
        "type": "Point",
        "coordinates": [
          -158.6786771310387,
          56.921923220467605
        ]
      }
    },
    {
      "type": "Feature",
      "properties": {
        "name": "Yakutat, AK"
      },
      "geometry": {
        "type": "Point",
        "coordinates": [
          -140.00387652018225,
          60.014564661579975
        ]
      }
    },
    {
      "type": "Feature",
      "properties": {
        "name": "Wrangell, AK"
      },
      "geometry": {
        "type": "Point",
        "coordinates": [
          -131.96100464163433,
          56.29489232353971
        ]
      }
    },
    {
      "type": "Feature",
      "properties": {
        "name": "False Pass, AK"
      },
      "geometry": {
        "type": "Point",
        "coordinates": [
          -163.33597809824568,
          54.82958406188983
        ]
      }
    },
    {
      "type": "Feature",
      "properties": {
        "name": "Haines Borough, AK"
      },
      "geometry": {
        "type": "Point",
        "coordinates": [
          -135.7321983658621,
          58.93952453378409
        ]
      }
    },
    {
      "type": "Feature",
      "properties": {
        "name": "Kake, AK"
      },
      "geometry": {
        "type": "Point",
        "coordinates": [
          -133.9176707698678,
          56.949602228933884
        ]
      }
    },
    {
      "type": "Feature",
      "properties": {
        "name": "Hoonah, AK"
      },
      "geometry": {
        "type": "Point",
        "coordinates": [
          -135.44466547349165,
          58.11817863985432
        ]
      }
    },
    {
      "type": "Feature",
      "properties": {
        "name": "Whittier, AK"
      },
      "geometry": {
        "type": "Point",
        "coordinates": [
          -148.6313843217596,
          60.78627828408658
        ]
      }
    },
    {
      "type": "Feature",
      "properties": {
        "name": "Dillingham, AK"
      },
      "geometry": {
        "type": "Point",
        "coordinates": [
          -158.51001248768125,
          59.04111148327127
        ]
      }
    },
    {
      "type": "Feature",
      "properties": {
        "name": "King Cove, AK"
      },
      "geometry": {
        "type": "Point",
        "coordinates": [
          -162.31847743958338,
          55.07027927928843
        ]
      }
    },
    {
      "type": "Feature",
      "properties": {
        "name": "Port Lions, AK"
      },
      "geometry": {
        "type": "Point",
        "coordinates": [
          -152.85389017714957,
          57.869376171797086
        ]
      }
    },
    {
      "type": "Feature",
      "properties": {
        "name": "Metlakatla, AK"
      },
      "geometry": {
        "type": "Point",
        "coordinates": [
          -131.58405274679345,
          55.11821560156608
        ]
      }
    },
    {
      "type": "Feature",
      "properties": {
        "name": "Old Harbor, AK"
      },
      "geometry": {
        "type": "Point",
        "coordinates": [
          -153.29375603071466,
          57.211745363220004
        ]
      }
    },
    {
      "type": "Feature",
      "properties": {
        "name": "Pelican, AK"
      },
      "geometry": {
        "type": "Point",
        "coordinates": [
          -136.2277493149911,
          57.95890483301757
        ]
      }
    },
    {
      "type": "Feature",
      "properties": {
        "name": "Ketchikan, AK"
      },
      "geometry": {
        "type": "Point",
        "coordinates": [
          -131.67569603136005,
          55.35937126473276
        ]
      }
    },
    {
      "type": "Feature",
      "properties": {
        "name": "Homer, AK"
      },
      "geometry": {
        "type": "Point",
        "coordinates": [
          -151.5059681205858,
          59.66055585972614
        ]
      }
    },
    {
      "type": "Feature",
      "properties": {
        "name": "Seward, AK"
      },
      "geometry": {
        "type": "Point",
        "coordinates": [
          -149.36227587888712,
          60.111683401885706
        ]
      }
    },
    {
      "type": "Feature",
      "properties": {
        "name": "Juneau, AK"
      },
      "geometry": {
        "type": "Point",
        "coordinates": [
          -134.4397020232962,
          58.23960293015211
        ]
      }
    },
    {
      "type": "Feature",
      "properties": {
        "name": "Nome, AK"
      },
      "geometry": {
        "type": "Point",
        "coordinates": [
          -165.39554943457824,
          64.52280573493249
        ]
      }
    },
    {
      "type": "Feature",
      "properties": {
        "name": "Beluga, AK"
      },
      "geometry": {
        "type": "Point",
        "coordinates": [
          -151.22729091278026,
          61.156077926772156
        ]
      }
    },
    {
      "type": "Feature",
      "properties": {
        "name": "Skagway, AK"
      },
      "geometry": {
        "type": "Point",
        "coordinates": [
          -135.3204448564003,
          59.456994008769634
        ]
      }
    },
    {
      "type": "Feature",
      "properties": {
        "name": "Craig, AK"
      },
      "geometry": {
        "type": "Point",
        "coordinates": [
          -133.12461384631308,
          55.485813593708656
        ]
      }
    },
    {
      "type": "Feature",
      "properties": {
        "name": "Bethel, AK"
      },
      "geometry": {
        "type": "Point",
        "coordinates": [
          -161.7332675763673,
          60.77463412018907
        ]
      }
    },
    {
      "type": "Feature",
      "properties": {
        "name": "Seldovia, AK"
      },
      "geometry": {
        "type": "Point",
        "coordinates": [
          -151.70859114046308,
          59.44219375534185
        ]
      }
    },
    {
      "type": "Feature",
      "properties": {
        "name": "Sitka Ports and Harbor Commission, AK"
      },
      "geometry": {
        "type": "Point",
        "coordinates": [
          -135.3481101114372,
          57.0483955108525
        ]
      }
    },
    {
      "type": "Feature",
      "properties": {
        "name": "Klawock, AK"
      },
      "geometry": {
        "type": "Point",
        "coordinates": [
          -133.08859537621439,
          55.55195954099052
        ]
      }
    },
    {
      "type": "Feature",
      "properties": {
        "name": "Kivalina, AK"
      },
      "geometry": {
        "type": "Point",
        "coordinates": [
          -164.5191619708596,
          67.73025449514657
        ]
      }
    },
    {
      "type": "Feature",
      "properties": {
        "name": "Kodiak, AK"
      },
      "geometry": {
        "type": "Point",
        "coordinates": [
          -152.3926654680315,
          57.79652258711983
        ]
      }
    },
    {
      "type": "Feature",
      "properties": {
        "name": "Wainwright, AK"
      },
      "geometry": {
        "type": "Point",
        "coordinates": [
          -160.0002072748482,
          70.63946967468827
        ]
      }
    },
    {
      "type": "Feature",
      "properties": {
        "name": "Utqiagvik (Barrow), AK"
      },
      "geometry": {
        "type": "Point",
        "coordinates": [
          -156.7601955969025,
          71.2724980532642
        ]
      }
    },
    {
      "type": "Feature",
      "properties": {
        "name": "Kaktovik, AK"
      },
      "geometry": {
        "type": "Point",
        "coordinates": [
          -143.62080802384853,
          70.12677302062913
        ]
      }
    },
    {
      "type": "Feature",
      "properties": {
        "name": "Guanica, PR"
      },
      "geometry": {
        "type": "Point",
        "coordinates": [
          -66.9052890374401,
          17.998490257069875
        ]
      }
    },
    {
      "type": "Feature",
      "properties": {
        "name": "Arecibo, PR"
      },
      "geometry": {
        "type": "Point",
        "coordinates": [
          -66.6877741445407,
          18.3769560765934
        ]
      }
    },
    {
      "type": "Feature",
      "properties": {
        "name": "Ponce Port Authority, PR"
      },
      "geometry": {
        "type": "Point",
        "coordinates": [
          -66.60556133733478,
          18.07403002945347
        ]
      }
    },
    {
      "type": "Feature",
      "properties": {
        "name": "Ceiba, PR"
      },
      "geometry": {
        "type": "Point",
        "coordinates": [
          -65.68576202929385,
          18.26231751697127
        ]
      }
    },
    {
      "type": "Feature",
      "properties": {
        "name": "Guayama, PR"
      },
      "geometry": {
        "type": "Point",
        "coordinates": [
          -66.11531051802974,
          18.04965644254192
        ]
      }
    },
    {
      "type": "Feature",
      "properties": {
        "name": "Fajardo, PR"
      },
      "geometry": {
        "type": "Point",
        "coordinates": [
          -65.68708472352952,
          18.293568196787454
        ]
      }
    },
    {
      "type": "Feature",
      "properties": {
        "name": "Yabucoa, PR"
      },
      "geometry": {
        "type": "Point",
        "coordinates": [
          -65.90545460815456,
          18.0807226192343
        ]
      }
    },
    {
      "type": "Feature",
      "properties": {
        "name": "Guayanilla, PR"
      },
      "geometry": {
        "type": "Point",
        "coordinates": [
          -66.7849568094194,
          18.057926452483855
        ]
      }
    },
    {
      "type": "Feature",
      "properties": {
        "name": "Guaynabo, PR"
      },
      "geometry": {
        "type": "Point",
        "coordinates": [
          -66.11728921323663,
          18.353874752694214
        ]
      }
    },
    {
      "type": "Feature",
      "properties": {
        "name": "San Juan, PR"
      },
      "geometry": {
        "type": "Point",
        "coordinates": [
          -66.05766610556708,
          18.369130035007622
        ]
      }
    },
    {
      "type": "Feature",
      "properties": {
        "name": "Mayaguez, PR"
      },
      "geometry": {
        "type": "Point",
        "coordinates": [
          -67.10730384023586,
          18.212479161735267
        ]
      }
    },
    {
      "type": "Feature",
      "properties": {
        "name": "California Yacht Marina-Wilmington"
      },
      "geometry": {
        "type": "Point",
        "coordinates": [
          -118.25115232857145,
          33.76726817142857
        ]
      }
    },
    {
      "type": "Feature",
      "properties": {
        "name": "Monroe Harbour Marina"
      },
      "geometry": {
        "type": "Point",
        "coordinates": [
          -81.2675583,
          28.8152829
        ]
      }
    },
    {
      "type": "Feature",
      "properties": {
        "name": "Port"
      },
      "geometry": {
        "type": "Point",
        "coordinates": [
          -81.2677706,
          28.8152803
        ]
      }
    },
    {
      "type": "Feature",
      "properties": {
        "name": "Monroe Harbour Marina"
      },
      "geometry": {
        "type": "Point",
        "coordinates": [
          -81.2636923,
          28.8146801
        ]
      }
    },
    {
      "type": "Feature",
      "properties": {
        "name": "Port"
      },
      "geometry": {
        "type": "Point",
        "coordinates": [
          -74.1957403,
          39.6608081
        ]
      }
    },
    {
      "type": "Feature",
      "properties": {
        "name": "California Yacht Marina - Wilmington"
      },
      "geometry": {
        "type": "Point",
        "coordinates": [
          -118.25115232857145,
          33.76726817142857
        ]
      }
    },
    {
      "type": "Feature",
      "properties": {
        "name": "Cap Sante Boat Haven"
      },
      "geometry": {
        "type": "Point",
        "coordinates": [
          -122.6061523,
          48.5132677
        ]
      }
    },
    {
      "type": "Feature",
      "properties": {
        "name": "Shilshole Bay Marina"
      },
      "geometry": {
        "type": "Point",
        "coordinates": [
          -122.407832,
          47.6821587
        ]
      }
    },
    {
      "type": "Feature",
      "properties": {
        "name": "Bell Street Marina"
      },
      "geometry": {
        "type": "Point",
        "coordinates": [
          -122.3469736,
          47.6099627
        ]
      }
    },
    {
      "type": "Feature",
      "properties": {
        "name": "Port of Miami"
      },
      "geometry": {
        "type": "Point",
        "coordinates": [
          -80.1634309,
          25.7736667
        ]
      }
    },
    {
      "type": "Feature",
      "properties": {
        "name": "Quannapowitt Yacht Club"
      },
      "geometry": {
        "type": "Point",
        "coordinates": [
          -71.0819734,
          42.5138393
        ]
      }
    },
    {
      "type": "Feature",
      "properties": {
        "name": "Port"
      },
      "geometry": {
        "type": "Point",
        "coordinates": [
          -89.2476628,
          30.3119013
        ]
      }
    },
    {
      "type": "Feature",
      "properties": {
        "name": "Ashland Marina"
      },
      "geometry": {
        "type": "Point",
        "coordinates": [
          -90.887672,
          46.5939161
        ]
      }
    },
    {
      "type": "Feature",
      "properties": {
        "name": "Bayfield Marina"
      },
      "geometry": {
        "type": "Point",
        "coordinates": [
          -90.8129363,
          46.8090733
        ]
      }
    },
    {
      "type": "Feature",
      "properties": {
        "name": "Canadian Forces Sailing Association"
      },
      "geometry": {
        "type": "Point",
        "coordinates": [
          -123.4326948,
          48.438554
        ]
      }
    },
    {
      "type": "Feature",
      "properties": {
        "name": "Canoe Brewpub Marina"
      },
      "geometry": {
        "type": "Point",
        "coordinates": [
          -123.3715883,
          48.4296834
        ]
      }
    },
    {
      "type": "Feature",
      "properties": {
        "name": "Canoe Cove Marina"
      },
      "geometry": {
        "type": "Point",
        "coordinates": [
          -123.4029936,
          48.6830508
        ]
      }
    },
    {
      "type": "Feature",
      "properties": {
        "name": "Causeway Marina"
      },
      "geometry": {
        "type": "Point",
        "coordinates": [
          -123.3695454,
          48.4218132
        ]
      }
    },
    {
      "type": "Feature",
      "properties": {
        "name": "Cedar Grove Marina"
      },
      "geometry": {
        "type": "Point",
        "coordinates": [
          -123.4170398,
          48.679664
        ]
      }
    },
    {
      "type": "Feature",
      "properties": {
        "name": "Coast Victoria Harbourside Marina"
      },
      "geometry": {
        "type": "Point",
        "coordinates": [
          -123.37925,
          48.4229683
        ]
      }
    },
    {
      "type": "Feature",
      "properties": {
        "name": "Fisherman's Wharf Marina"
      },
      "geometry": {
        "type": "Point",
        "coordinates": [
          -123.38332,
          48.4232033
        ]
      }
    },
    {
      "type": "Feature",
      "properties": {
        "name": "Goldstream Boathouse Marina"
      },
      "geometry": {
        "type": "Point",
        "coordinates": [
          -123.5524331,
          48.4973371
        ]
      }
    },
    {
      "type": "Feature",
      "properties": {
        "name": "Hidden Harbour Marine Centre"
      },
      "geometry": {
        "type": "Point",
        "coordinates": [
          -123.3977617,
          48.4274561
        ]
      }
    },
    {
      "type": "Feature",
      "properties": {
        "name": "Johnson Street Marina"
      },
      "geometry": {
        "type": "Point",
        "coordinates": [
          -123.3714457,
          48.4276354
        ]
      }
    },
    {
      "type": "Feature",
      "properties": {
        "name": "Mermaid Wharf Marina"
      },
      "geometry": {
        "type": "Point",
        "coordinates": [
          -123.3715078,
          48.4291659
        ]
      }
    },
    {
      "type": "Feature",
      "properties": {
        "name": "North Saanich Marina"
      },
      "geometry": {
        "type": "Point",
        "coordinates": [
          -123.4169711,
          48.6764155
        ]
      }
    },
    {
      "type": "Feature",
      "properties": {
        "name": "Pier One Marina"
      },
      "geometry": {
        "type": "Point",
        "coordinates": [
          -123.3787023,
          48.4233692
        ]
      }
    },
    {
      "type": "Feature",
      "properties": {
        "name": "Portside Marina"
      },
      "geometry": {
        "type": "Point",
        "coordinates": [
          -123.4673005,
          48.5777185
        ]
      }
    },
    {
      "type": "Feature",
      "properties": {
        "name": "Port Sidney Marina"
      },
      "geometry": {
        "type": "Point",
        "coordinates": [
          -123.3938201,
          48.6526867
        ]
      }
    },
    {
      "type": "Feature",
      "properties": {
        "name": "Royal Victoria Yacht Club - Tsehum Haven"
      },
      "geometry": {
        "type": "Point",
        "coordinates": [
          -123.4160271,
          48.6802748
        ]
      }
    },
    {
      "type": "Feature",
      "properties": {
        "name": "Sailor's Cove Marina"
      },
      "geometry": {
        "type": "Point",
        "coordinates": [
          -123.397067,
          48.4278078
        ]
      }
    },
    {
      "type": "Feature",
      "properties": {
        "name": "Ship Point Marina"
      },
      "geometry": {
        "type": "Point",
        "coordinates": [
          -123.3701454,
          48.4227627
        ]
      }
    },
    {
      "type": "Feature",
      "properties": {
        "name": "Van Isle Marina"
      },
      "geometry": {
        "type": "Point",
        "coordinates": [
          -123.4058525,
          48.6690584
        ]
      }
    },
    {
      "type": "Feature",
      "properties": {
        "name": "Village Marina"
      },
      "geometry": {
        "type": "Point",
        "coordinates": [
          -123.3714288,
          48.4303674
        ]
      }
    },
    {
      "type": "Feature",
      "properties": {
        "name": "Westbay Marina"
      },
      "geometry": {
        "type": "Point",
        "coordinates": [
          -123.3964874,
          48.4267648
        ]
      }
    },
    {
      "type": "Feature",
      "properties": {
        "name": "Westport Marina"
      },
      "geometry": {
        "type": "Point",
        "coordinates": [
          -123.4140232,
          48.6805269
        ]
      }
    },
    {
      "type": "Feature",
      "properties": {
        "name": "Wharf Street Marina"
      },
      "geometry": {
        "type": "Point",
        "coordinates": [
          -123.3710535,
          48.425129
        ]
      }
    },
    {
      "type": "Feature",
      "properties": {
        "name": "Port"
      },
      "geometry": {
        "type": "Point",
        "coordinates": [
          -123.3857409,
          48.4236236
        ]
      }
    },
    {
      "type": "Feature",
      "properties": {
        "name": "Becher Bay Marina"
      },
      "geometry": {
        "type": "Point",
        "coordinates": [
          -123.6332236,
          48.3295124
        ]
      }
    },
    {
      "type": "Feature",
      "properties": {
        "name": "Cheanuh Marina"
      },
      "geometry": {
        "type": "Point",
        "coordinates": [
          -123.6028053,
          48.3369533
        ]
      }
    },
    {
      "type": "Feature",
      "properties": {
        "name": "Jock's Dock"
      },
      "geometry": {
        "type": "Point",
        "coordinates": [
          -123.7288146,
          48.3666426
        ]
      }
    },
    {
      "type": "Feature",
      "properties": {
        "name": "Mariner's Village Marina"
      },
      "geometry": {
        "type": "Point",
        "coordinates": [
          -123.7155611,
          48.3763763
        ]
      }
    },
    {
      "type": "Feature",
      "properties": {
        "name": "Sooke Harbour Marina"
      },
      "geometry": {
        "type": "Point",
        "coordinates": [
          -123.7290917,
          48.3659857
        ]
      }
    },
    {
      "type": "Feature",
      "properties": {
        "name": "Port"
      },
      "geometry": {
        "type": "Point",
        "coordinates": [
          -123.7258727,
          48.3700572
        ]
      }
    },
    {
      "type": "Feature",
      "properties": {
        "name": "Port"
      },
      "geometry": {
        "type": "Point",
        "coordinates": [
          -123.7203209,
          48.3736705
        ]
      }
    },
    {
      "type": "Feature",
      "properties": {
        "name": "Port"
      },
      "geometry": {
        "type": "Point",
        "coordinates": [
          -123.7191741,
          48.3738687
        ]
      }
    },
    {
      "type": "Feature",
      "properties": {
        "name": "Lower Harbor"
      },
      "geometry": {
        "type": "Point",
        "coordinates": [
          -93.0930871,
          44.9405601
        ]
      }
    },
    {
      "type": "Feature",
      "properties": {
        "name": "Comox Bay Marina"
      },
      "geometry": {
        "type": "Point",
        "coordinates": [
          -124.9283486,
          49.6695203
        ]
      }
    },
    {
      "type": "Feature",
      "properties": {
        "name": "French Creek Marina"
      },
      "geometry": {
        "type": "Point",
        "coordinates": [
          -124.3572075,
          49.3497237
        ]
      }
    },
    {
      "type": "Feature",
      "properties": {
        "name": "Chicago Harbor"
      },
      "geometry": {
        "type": "Point",
        "coordinates": [
          -87.6048663,
          41.8848941
        ]
      }
    },
    {
      "type": "Feature",
      "properties": {
        "name": "Port"
      },
      "geometry": {
        "type": "Point",
        "coordinates": [
          -95.20926,
          49.7447438
        ]
      }
    },
    {
      "type": "Feature",
      "properties": {
        "name": "Liberty Harbor Marina"
      },
      "geometry": {
        "type": "Point",
        "coordinates": [
          -83.8946859,
          43.6006355
        ]
      }
    },
    {
      "type": "Feature",
      "properties": {
        "name": "Port of Kingston"
      },
      "geometry": {
        "type": "Point",
        "coordinates": [
          -122.4981234,
          47.7949477
        ]
      }
    },
    {
      "type": "Feature",
      "properties": {
        "name": "Port"
      },
      "geometry": {
        "type": "Point",
        "coordinates": [
          -76.0526469,
          43.2011797
        ]
      }
    },
    {
      "type": "Feature",
      "properties": {
        "name": "Coneys Marine"
      },
      "geometry": {
        "type": "Point",
        "coordinates": [
          -73.4211879,
          40.8832708
        ]
      }
    },
    {
      "type": "Feature",
      "properties": {
        "name": "Port"
      },
      "geometry": {
        "type": "Point",
        "coordinates": [
          -83.4559017,
          41.7370253
        ]
      }
    },
    {
      "type": "Feature",
      "properties": {
        "name": "Confederation Basin Marina"
      },
      "geometry": {
        "type": "Point",
        "coordinates": [
          -76.4795565,
          44.2283495
        ]
      }
    },
    {
      "type": "Feature",
      "properties": {
        "name": "North Breakwater"
      },
      "geometry": {
        "type": "Point",
        "coordinates": [
          -86.2494685,
          44.6320841
        ]
      }
    },
    {
      "type": "Feature",
      "properties": {
        "name": "Cape George Colony Marina"
      },
      "geometry": {
        "type": "Point",
        "coordinates": [
          -122.8836399,
          48.1019399
        ]
      }
    },
    {
      "type": "Feature",
      "properties": {
        "name": "Habersham Marina"
      },
      "geometry": {
        "type": "Point",
        "coordinates": [
          -84.1028067,
          34.1915831
        ]
      }
    },
    {
      "type": "Feature",
      "properties": {
        "name": "World's Fair Marina"
      },
      "geometry": {
        "type": "Point",
        "coordinates": [
          -73.8544253,
          40.7623332
        ]
      }
    },
    {
      "type": "Feature",
      "properties": {
        "name": "Boat Basin"
      },
      "geometry": {
        "type": "Point",
        "coordinates": [
          -123.9341786,
          49.1674622
        ]
      }
    },
    {
      "type": "Feature",
      "properties": {
        "name": "W.E. Mills Landing & Marina"
      },
      "geometry": {
        "type": "Point",
        "coordinates": [
          -123.9329081,
          49.1689504
        ]
      }
    },
    {
      "type": "Feature",
      "properties": {
        "name": "Tylerton County Dock"
      },
      "geometry": {
        "type": "Point",
        "coordinates": [
          -76.0214443,
          37.9689691
        ]
      }
    },
    {
      "type": "Feature",
      "properties": {
        "name": "Ganges Marina"
      },
      "geometry": {
        "type": "Point",
        "coordinates": [
          -123.4995114,
          48.8558489
        ]
      }
    },
    {
      "type": "Feature",
      "properties": {
        "name": "Musgrave Landing Estates Marina"
      },
      "geometry": {
        "type": "Point",
        "coordinates": [
          -123.5493455,
          48.7488851
        ]
      }
    },
    {
      "type": "Feature",
      "properties": {
        "name": "Royal Vancouver Yacht Club - Scott Point"
      },
      "geometry": {
        "type": "Point",
        "coordinates": [
          -123.4359323,
          48.8472126
        ]
      }
    },
    {
      "type": "Feature",
      "properties": {
        "name": "Salt Spring Island Sailing Club"
      },
      "geometry": {
        "type": "Point",
        "coordinates": [
          -123.4892085,
          48.8454504
        ]
      }
    },
    {
      "type": "Feature",
      "properties": {
        "name": "Salt Spring Marina"
      },
      "geometry": {
        "type": "Point",
        "coordinates": [
          -123.5000405,
          48.8581955
        ]
      }
    },
    {
      "type": "Feature",
      "properties": {
        "name": "Musgrave Landing"
      },
      "geometry": {
        "type": "Point",
        "coordinates": [
          -123.5490885,
          48.7490311
        ]
      }
    },
    {
      "type": "Feature",
      "properties": {
        "name": "Clarksville Marina"
      },
      "geometry": {
        "type": "Point",
        "coordinates": [
          -87.3698813,
          36.510016
        ]
      }
    },
    {
      "type": "Feature",
      "properties": {
        "name": "Burrard Civic Marina"
      },
      "geometry": {
        "type": "Point",
        "coordinates": [
          -123.1381768,
          49.2750997
        ]
      }
    },
    {
      "type": "Feature",
      "properties": {
        "name": "Marina du Port de Québec"
      },
      "geometry": {
        "type": "Point",
        "coordinates": [
          -71.2072026,
          46.8191523
        ]
      }
    },
    {
      "type": "Feature",
      "properties": {
        "name": "Jubilee Yacht Club"
      },
      "geometry": {
        "type": "Point",
        "coordinates": [
          -70.878934,
          42.5400286
        ]
      }
    },
    {
      "type": "Feature",
      "properties": {
        "name": "Woodville Boat Launch"
      },
      "geometry": {
        "type": "Point",
        "coordinates": [
          -77.3653968,
          42.6673933
        ]
      }
    },
    {
      "type": "Feature",
      "properties": {
        "name": "Oneida Lake Boat Launch"
      },
      "geometry": {
        "type": "Point",
        "coordinates": [
          -75.9492982,
          43.2462227
        ]
      }
    },
    {
      "type": "Feature",
      "properties": {
        "name": "South Bay State Boat Launch"
      },
      "geometry": {
        "type": "Point",
        "coordinates": [
          -73.4336421,
          43.5745305
        ]
      }
    },
    {
      "type": "Feature",
      "properties": {
        "name": "Slater Creek Waterway Access"
      },
      "geometry": {
        "type": "Point",
        "coordinates": [
          -77.6267141,
          43.2689302
        ]
      }
    },
    {
      "type": "Feature",
      "properties": {
        "name": "Stillwater Boat Launch"
      },
      "geometry": {
        "type": "Point",
        "coordinates": [
          -75.0360542,
          43.8899356
        ]
      }
    },
    {
      "type": "Feature",
      "properties": {
        "name": "Lake Norman Yacht Club"
      },
      "geometry": {
        "type": "Point",
        "coordinates": [
          -80.9175537,
          35.5185954
        ]
      }
    },
    {
      "type": "Feature",
      "properties": {
        "name": "Oak Orchard State Marine Park"
      },
      "geometry": {
        "type": "Point",
        "coordinates": [
          -78.1989181,
          43.3679016
        ]
      }
    },
    {
      "type": "Feature",
      "properties": {
        "name": "Lodi Point State Park"
      },
      "geometry": {
        "type": "Point",
        "coordinates": [
          -76.8769763,
          42.6184102
        ]
      }
    },
    {
      "type": "Feature",
      "properties": {
        "name": "Beach Marine"
      },
      "geometry": {
        "type": "Point",
        "coordinates": [
          -81.4167693,
          30.2893605
        ]
      }
    },
    {
      "type": "Feature",
      "properties": {
        "name": "Palm Cove Marina"
      },
      "geometry": {
        "type": "Point",
        "coordinates": [
          -81.431434,
          30.2896929
        ]
      }
    },
    {
      "type": "Feature",
      "properties": {
        "name": "Edinburg Marina"
      },
      "geometry": {
        "type": "Point",
        "coordinates": [
          -74.0920976,
          43.2218546
        ]
      }
    },
    {
      "type": "Feature",
      "properties": {
        "name": "Tolchester Marina"
      },
      "geometry": {
        "type": "Point",
        "coordinates": [
          -76.2416745,
          39.2131118
        ]
      }
    },
    {
      "type": "Feature",
      "properties": {
        "name": "Harbour Town Marina"
      },
      "geometry": {
        "type": "Point",
        "coordinates": [
          -80.8123911,
          32.1379581
        ]
      }
    },
    {
      "type": "Feature",
      "properties": {
        "name": "Gas Works Park Marina"
      },
      "geometry": {
        "type": "Point",
        "coordinates": [
          -122.3321646,
          47.646809
        ]
      }
    },
    {
      "type": "Feature",
      "properties": {
        "name": "Leonardo State Marina"
      },
      "geometry": {
        "type": "Point",
        "coordinates": [
          -74.0612499,
          40.4224275
        ]
      }
    },
    {
      "type": "Feature",
      "properties": {
        "name": "Stones Marina & Boatyard"
      },
      "geometry": {
        "type": "Point",
        "coordinates": [
          -123.9477255,
          49.1881309
        ]
      }
    },
    {
      "type": "Feature",
      "properties": {
        "name": "Townsite Marina"
      },
      "geometry": {
        "type": "Point",
        "coordinates": [
          -123.942435,
          49.1791346
        ]
      }
    },
    {
      "type": "Feature",
      "properties": {
        "name": "Puerto Loreto"
      },
      "geometry": {
        "type": "Point",
        "coordinates": [
          -111.3392571,
          26.0149043
        ]
      }
    },
    {
      "type": "Feature",
      "properties": {
        "name": "Port"
      },
      "geometry": {
        "type": "Point",
        "coordinates": [
          -87.9093406,
          43.0312682
        ]
      }
    },
    {
      "type": "Feature",
      "properties": {
        "name": "Port"
      },
      "geometry": {
        "type": "Point",
        "coordinates": [
          -87.9033447,
          43.0270142
        ]
      }
    },
    {
      "type": "Feature",
      "properties": {
        "name": "Port"
      },
      "geometry": {
        "type": "Point",
        "coordinates": [
          -87.9100946,
          43.0330862
        ]
      }
    },
    {
      "type": "Feature",
      "properties": {
        "name": "Port"
      },
      "geometry": {
        "type": "Point",
        "coordinates": [
          -87.9100063,
          43.0374518
        ]
      }
    },
    {
      "type": "Feature",
      "properties": {
        "name": "Port"
      },
      "geometry": {
        "type": "Point",
        "coordinates": [
          -87.910214,
          43.037861
        ]
      }
    },
    {
      "type": "Feature",
      "properties": {
        "name": "Newcastle Marina"
      },
      "geometry": {
        "type": "Point",
        "coordinates": [
          -123.9450925,
          49.1838262
        ]
      }
    },
    {
      "type": "Feature",
      "properties": {
        "name": "Lynnwood Marina"
      },
      "geometry": {
        "type": "Point",
        "coordinates": [
          -123.0282916,
          49.2995312
        ]
      }
    },
    {
      "type": "Feature",
      "properties": {
        "name": "Thieves Bay Marina"
      },
      "geometry": {
        "type": "Point",
        "coordinates": [
          -123.3131053,
          48.7707569
        ]
      }
    },
    {
      "type": "Feature",
      "properties": {
        "name": "Otter Bay Marina"
      },
      "geometry": {
        "type": "Point",
        "coordinates": [
          -123.3098561,
          48.799433
        ]
      }
    },
    {
      "type": "Feature",
      "properties": {
        "name": "Saxon Harbor"
      },
      "geometry": {
        "type": "Point",
        "coordinates": [
          -90.4386457,
          46.5620406
        ]
      }
    },
    {
      "type": "Feature",
      "properties": {
        "name": "Port"
      },
      "geometry": {
        "type": "Point",
        "coordinates": [
          -87.9125274,
          43.0425193
        ]
      }
    },
    {
      "type": "Feature",
      "properties": {
        "name": "Victoria International Marina"
      },
      "geometry": {
        "type": "Point",
        "coordinates": [
          -123.3830933,
          48.4267966
        ]
      }
    },
    {
      "type": "Feature",
      "properties": {
        "name": "Port"
      },
      "geometry": {
        "type": "Point",
        "coordinates": [
          -86.2447144,
          35.2684894
        ]
      }
    },
    {
      "type": "Feature",
      "properties": {
        "name": "Port"
      },
      "geometry": {
        "type": "Point",
        "coordinates": [
          -86.2447016,
          35.2693626
        ]
      }
    },
    {
      "type": "Feature",
      "properties": {
        "name": "Tim's Ford Marina & Resort"
      },
      "geometry": {
        "type": "Point",
        "coordinates": [
          -86.2429177,
          35.2246881
        ]
      }
    },
    {
      "type": "Feature",
      "properties": {
        "name": "Burnt Store Marina"
      },
      "geometry": {
        "type": "Point",
        "coordinates": [
          -82.0586868,
          26.7627883
        ]
      }
    },
    {
      "type": "Feature",
      "properties": {
        "name": "Seaford Yacht Club"
      },
      "geometry": {
        "type": "Point",
        "coordinates": [
          -76.4371312,
          37.207122
        ]
      }
    },
    {
      "type": "Feature",
      "properties": {
        "name": "Port"
      },
      "geometry": {
        "type": "Point",
        "coordinates": [
          -88.8618683,
          30.4076433
        ]
      }
    },
    {
      "type": "Feature",
      "properties": {
        "name": "yes"
      },
      "geometry": {
        "type": "Point",
        "coordinates": [
          -77.9110278,
          25.8252136
        ]
      }
    },
    {
      "type": "Feature",
      "properties": {
        "name": "Port"
      },
      "geometry": {
        "type": "Point",
        "coordinates": [
          -89.5866594,
          40.6889712
        ]
      }
    },
    {
      "type": "Feature",
      "properties": {
        "name": "Santa Cruz Small Craft Harbor"
      },
      "geometry": {
        "type": "Point",
        "coordinates": [
          -122.0009885,
          36.9682427
        ]
      }
    },
    {
      "type": "Feature",
      "properties": {
        "name": "Mazanet Marina"
      },
      "geometry": {
        "type": "Point",
        "coordinates": [
          -89.4088593,
          43.1468737
        ]
      }
    },
    {
      "type": "Feature",
      "properties": {
        "name": "Anchorage Marina Village"
      },
      "geometry": {
        "type": "Point",
        "coordinates": [
          -123.9457561,
          49.185232
        ]
      }
    },
    {
      "type": "Feature",
      "properties": {
        "name": "Port"
      },
      "geometry": {
        "type": "Point",
        "coordinates": [
          -80.2800706,
          25.6670365
        ]
      }
    },
    {
      "type": "Feature",
      "properties": {
        "name": "Port of Rochester Marina"
      },
      "geometry": {
        "type": "Point",
        "coordinates": [
          -77.6085316,
          43.2550811
        ]
      }
    },
    {
      "type": "Feature",
      "properties": {
        "name": "Holgate Marina"
      },
      "geometry": {
        "type": "Point",
        "coordinates": [
          -74.2601056,
          39.5420328
        ]
      }
    },
    {
      "type": "Feature",
      "properties": {
        "name": "Toronto Island Marina"
      },
      "geometry": {
        "type": "Point",
        "coordinates": [
          -79.3823939,
          43.6234529
        ]
      }
    },
    {
      "type": "Feature",
      "properties": {
        "name": "Marina West"
      },
      "geometry": {
        "type": "Point",
        "coordinates": [
          -76.5367961,
          38.6912328
        ]
      }
    },
    {
      "type": "Feature",
      "properties": {
        "name": "Madeline Island Yacht Club"
      },
      "geometry": {
        "type": "Point",
        "coordinates": [
          -90.7810663,
          46.772728
        ]
      }
    },
    {
      "type": "Feature",
      "properties": {
        "name": "Galati Yacht basin"
      },
      "geometry": {
        "type": "Point",
        "coordinates": [
          -82.721457,
          27.5266069
        ]
      }
    },
    {
      "type": "Feature",
      "properties": {
        "name": "Pointe-Claire Yacht Club"
      },
      "geometry": {
        "type": "Point",
        "coordinates": [
          -73.8212403,
          45.4286244
        ]
      }
    },
    {
      "type": "Feature",
      "properties": {
        "name": "Port"
      },
      "geometry": {
        "type": "Point",
        "coordinates": [
          -88.2345551,
          35.0537166
        ]
      }
    },
    {
      "type": "Feature",
      "properties": {
        "name": "Decatur Harbor"
      },
      "geometry": {
        "type": "Point",
        "coordinates": [
          -86.9711624,
          34.6167536
        ]
      }
    },
    {
      "type": "Feature",
      "properties": {
        "name": "Decatur Harbor"
      },
      "geometry": {
        "type": "Point",
        "coordinates": [
          -86.9696687,
          34.617238
        ]
      }
    },
    {
      "type": "Feature",
      "properties": {
        "name": "Fort Adams Marina"
      },
      "geometry": {
        "type": "Point",
        "coordinates": [
          -71.3371724,
          41.4811507
        ]
      }
    },
    {
      "type": "Feature",
      "properties": {
        "name": "Weekapaug Yacht Club"
      },
      "geometry": {
        "type": "Point",
        "coordinates": [
          -71.7501162,
          41.328462
        ]
      }
    },
    {
      "type": "Feature",
      "properties": {
        "name": "Port"
      },
      "geometry": {
        "type": "Point",
        "coordinates": [
          -71.5153491,
          41.3777404
        ]
      }
    },
    {
      "type": "Feature",
      "properties": {
        "name": "Port"
      },
      "geometry": {
        "type": "Point",
        "coordinates": [
          -71.5181208,
          41.3876353
        ]
      }
    },
    {
      "type": "Feature",
      "properties": {
        "name": "Port"
      },
      "geometry": {
        "type": "Point",
        "coordinates": [
          -71.5249568,
          41.3852933
        ]
      }
    },
    {
      "type": "Feature",
      "properties": {
        "name": "Port"
      },
      "geometry": {
        "type": "Point",
        "coordinates": [
          -71.4956734,
          41.4271888
        ]
      }
    },
    {
      "type": "Feature",
      "properties": {
        "name": "Port"
      },
      "geometry": {
        "type": "Point",
        "coordinates": [
          -71.5034553,
          41.4224012
        ]
      }
    },
    {
      "type": "Feature",
      "properties": {
        "name": "Safe Harbor Silver Spring"
      },
      "geometry": {
        "type": "Point",
        "coordinates": [
          -71.4999943,
          41.4269812
        ]
      }
    },
    {
      "type": "Feature",
      "properties": {
        "name": "Lakewoods Marina"
      },
      "geometry": {
        "type": "Point",
        "coordinates": [
          -91.1221962,
          46.1985417
        ]
      }
    },
    {
      "type": "Feature",
      "properties": {
        "name": "Port"
      },
      "geometry": {
        "type": "Point",
        "coordinates": [
          -76.0334088,
          37.9965003
        ]
      }
    },
    {
      "type": "Feature",
      "properties": {
        "name": "Westerly Yacht Club"
      },
      "geometry": {
        "type": "Point",
        "coordinates": [
          -71.8274692,
          41.3479233
        ]
      }
    },
    {
      "type": "Feature",
      "properties": {
        "name": "Grays Boat Yard"
      },
      "geometry": {
        "type": "Point",
        "coordinates": [
          -71.8308299,
          41.3351218
        ]
      }
    },
    {
      "type": "Feature",
      "properties": {
        "name": "Frank Hall Boat Yard"
      },
      "geometry": {
        "type": "Point",
        "coordinates": [
          -71.8356587,
          41.3352701
        ]
      }
    },
    {
      "type": "Feature",
      "properties": {
        "name": "Lotteryville Marina"
      },
      "geometry": {
        "type": "Point",
        "coordinates": [
          -71.8369761,
          41.3343593
        ]
      }
    },
    {
      "type": "Feature",
      "properties": {
        "name": "Avondale Boat Yard"
      },
      "geometry": {
        "type": "Point",
        "coordinates": [
          -71.8401293,
          41.3325507
        ]
      }
    },
    {
      "type": "Feature",
      "properties": {
        "name": "Port"
      },
      "geometry": {
        "type": "Point",
        "coordinates": [
          -71.4487897,
          41.4719865
        ]
      }
    },
    {
      "type": "Feature",
      "properties": {
        "name": "Lakeshore Yacht Club"
      },
      "geometry": {
        "type": "Point",
        "coordinates": [
          -79.5141214,
          43.5900868
        ]
      }
    },
    {
      "type": "Feature",
      "properties": {
        "name": "Wickford Cove Marina"
      },
      "geometry": {
        "type": "Point",
        "coordinates": [
          -71.4481281,
          41.5679516
        ]
      }
    },
    {
      "type": "Feature",
      "properties": {
        "name": "Wickford Shipyard"
      },
      "geometry": {
        "type": "Point",
        "coordinates": [
          -71.4447575,
          41.5712281
        ]
      }
    },
    {
      "type": "Feature",
      "properties": {
        "name": "Wickford Yacht Club"
      },
      "geometry": {
        "type": "Point",
        "coordinates": [
          -71.4479166,
          41.5766195
        ]
      }
    },
    {
      "type": "Feature",
      "properties": {
        "name": "Full Keel Marine"
      },
      "geometry": {
        "type": "Point",
        "coordinates": [
          -71.4497819,
          41.5755794
        ]
      }
    },
    {
      "type": "Feature",
      "properties": {
        "name": "Wickford Marina"
      },
      "geometry": {
        "type": "Point",
        "coordinates": [
          -71.4502273,
          41.5776278
        ]
      }
    },
    {
      "type": "Feature",
      "properties": {
        "name": "Port"
      },
      "geometry": {
        "type": "Point",
        "coordinates": [
          -87.9258377,
          43.0319883
        ]
      }
    },
    {
      "type": "Feature",
      "properties": {
        "name": "Fisherman's Marina"
      },
      "geometry": {
        "type": "Point",
        "coordinates": [
          -81.6424669,
          30.3904017
        ]
      }
    },
    {
      "type": "Feature",
      "properties": {
        "name": "Seafarers Marina"
      },
      "geometry": {
        "type": "Point",
        "coordinates": [
          -81.6416626,
          30.3905634
        ]
      }
    },
    {
      "type": "Feature",
      "properties": {
        "name": "Venice"
      },
      "geometry": {
        "type": "Point",
        "coordinates": [
          -89.3633657,
          29.2390913
        ]
      }
    },
    {
      "type": "Feature",
      "properties": {
        "name": "Port"
      },
      "geometry": {
        "type": "Point",
        "coordinates": [
          -89.6957312,
          44.7116047
        ]
      }
    },
    {
      "type": "Feature",
      "properties": {
        "name": "Toad Cove Marina"
      },
      "geometry": {
        "type": "Point",
        "coordinates": [
          -92.7498006,
          38.2059131
        ]
      }
    },
    {
      "type": "Feature",
      "properties": {
        "name": "Pepin Marina"
      },
      "geometry": {
        "type": "Point",
        "coordinates": [
          -92.147414,
          44.4374033
        ]
      }
    },
    {
      "type": "Feature",
      "properties": {
        "name": "yes"
      },
      "geometry": {
        "type": "Point",
        "coordinates": [
          -73.1060854,
          41.2209522
        ]
      }
    },
    {
      "type": "Feature",
      "properties": {
        "name": "LakePort Marina"
      },
      "geometry": {
        "type": "Point",
        "coordinates": [
          -92.6470307,
          38.1355755
        ]
      }
    },
    {
      "type": "Feature",
      "properties": {
        "name": "Port of Indecision Marina"
      },
      "geometry": {
        "type": "Point",
        "coordinates": [
          -92.7173035,
          38.1270978
        ]
      }
    },
    {
      "type": "Feature",
      "properties": {
        "name": "Stockton Downtown Marina"
      },
      "geometry": {
        "type": "Point",
        "coordinates": [
          -121.2998688,
          37.9530895
        ]
      }
    },
    {
      "type": "Feature",
      "properties": {
        "name": "Siskiwit Bay Marina"
      },
      "geometry": {
        "type": "Point",
        "coordinates": [
          -91.1025328,
          46.8577083
        ]
      }
    },
    {
      "type": "Feature",
      "properties": {
        "name": "Bell Marina"
      },
      "geometry": {
        "type": "Point",
        "coordinates": [
          -91.1012466,
          46.8581231
        ]
      }
    },
    {
      "type": "Feature",
      "properties": {
        "name": "Pike's Bay Marina"
      },
      "geometry": {
        "type": "Point",
        "coordinates": [
          -90.8505517,
          46.78951
        ]
      }
    },
    {
      "type": "Feature",
      "properties": {
        "name": "Port Superior Marina"
      },
      "geometry": {
        "type": "Point",
        "coordinates": [
          -90.8532397,
          46.7887159
        ]
      }
    },
    {
      "type": "Feature",
      "properties": {
        "name": "Apostle Islands Yacht Club"
      },
      "geometry": {
        "type": "Point",
        "coordinates": [
          -90.8194894,
          46.8071988
        ]
      }
    },
    {
      "type": "Feature",
      "properties": {
        "name": "Blackhawk Marina"
      },
      "geometry": {
        "type": "Point",
        "coordinates": [
          -90.8191967,
          46.8069179
        ]
      }
    },
    {
      "type": "Feature",
      "properties": {
        "name": "Bayfield City Dock"
      },
      "geometry": {
        "type": "Point",
        "coordinates": [
          -90.8118863,
          46.8108012
        ]
      }
    },
    {
      "type": "Feature",
      "properties": {
        "name": "Naval Station Norfolk Sailing Center and Marina"
      },
      "geometry": {
        "type": "Point",
        "coordinates": [
          -76.3095081,
          36.9534926
        ]
      }
    },
    {
      "type": "Feature",
      "properties": {
        "name": "Roys Point Marina"
      },
      "geometry": {
        "type": "Point",
        "coordinates": [
          -90.7853392,
          46.8414825
        ]
      }
    },
    {
      "type": "Feature",
      "properties": {
        "name": "Port"
      },
      "geometry": {
        "type": "Point",
        "coordinates": [
          -90.8896956,
          46.9475606
        ]
      }
    },
    {
      "type": "Feature",
      "properties": {
        "name": "Island Marina"
      },
      "geometry": {
        "type": "Point",
        "coordinates": [
          -90.437688,
          41.5352211
        ]
      }
    },
    {
      "type": "Feature",
      "properties": {
        "name": "Marquis Small Boat Harbor Marina"
      },
      "geometry": {
        "type": "Point",
        "coordinates": [
          -90.4683012,
          41.5157947
        ]
      }
    },
    {
      "type": "Feature",
      "properties": {
        "name": "Westpoint Harbor"
      },
      "geometry": {
        "type": "Point",
        "coordinates": [
          -122.1942018,
          37.5126745
        ]
      }
    },
    {
      "type": "Feature",
      "properties": {
        "name": "Sailfish Marina Resort"
      },
      "geometry": {
        "type": "Point",
        "coordinates": [
          -80.0402735,
          26.7772466
        ]
      }
    },
    {
      "type": "Feature",
      "properties": {
        "name": "Port"
      },
      "geometry": {
        "type": "Point",
        "coordinates": [
          -75.9563683,
          39.592947
        ]
      }
    },
    {
      "type": "Feature",
      "properties": {
        "name": "Scotch Bonnet Marina"
      },
      "geometry": {
        "type": "Point",
        "coordinates": [
          -75.6017784,
          35.2523845
        ]
      }
    },
    {
      "type": "Feature",
      "properties": {
        "name": "Hatteras Boatyard"
      },
      "geometry": {
        "type": "Point",
        "coordinates": [
          -75.5570258,
          35.265551
        ]
      }
    },
    {
      "type": "Feature",
      "properties": {
        "name": "Harbor Centre Marina"
      },
      "geometry": {
        "type": "Point",
        "coordinates": [
          -87.7003308,
          43.7526469
        ]
      }
    },
    {
      "type": "Feature",
      "properties": {
        "name": "Rockhold Creek Marina"
      },
      "geometry": {
        "type": "Point",
        "coordinates": [
          -76.5599309,
          38.7776307
        ]
      }
    },
    {
      "type": "Feature",
      "properties": {
        "name": "Bristol Boat Company and Marina"
      },
      "geometry": {
        "type": "Point",
        "coordinates": [
          -76.5612734,
          38.7764195
        ]
      }
    },
    {
      "type": "Feature",
      "properties": {
        "name": "Shipwright Harbor Marina"
      },
      "geometry": {
        "type": "Point",
        "coordinates": [
          -76.5621349,
          38.7755765
        ]
      }
    },
    {
      "type": "Feature",
      "properties": {
        "name": "Port"
      },
      "geometry": {
        "type": "Point",
        "coordinates": [
          -76.5608633,
          38.7731732
        ]
      }
    },
    {
      "type": "Feature",
      "properties": {
        "name": "Port"
      },
      "geometry": {
        "type": "Point",
        "coordinates": [
          -76.5609872,
          38.7743495
        ]
      }
    },
    {
      "type": "Feature",
      "properties": {
        "name": "Bay Harbor Marina"
      },
      "geometry": {
        "type": "Point",
        "coordinates": [
          -76.560865,
          38.776808
        ]
      }
    },
    {
      "type": "Feature",
      "properties": {
        "name": "Herrington Harbor North"
      },
      "geometry": {
        "type": "Point",
        "coordinates": [
          -76.5641193,
          38.7740512
        ]
      }
    },
    {
      "type": "Feature",
      "properties": {
        "name": "Zittel's Marina"
      },
      "geometry": {
        "type": "Point",
        "coordinates": [
          -122.8089466,
          47.1647042
        ]
      }
    },
    {
      "type": "Feature",
      "properties": {
        "name": "Herrington Harbour South"
      },
      "geometry": {
        "type": "Point",
        "coordinates": [
          -76.5426813,
          38.7254563
        ]
      }
    },
    {
      "type": "Feature",
      "properties": {
        "name": "Port"
      },
      "geometry": {
        "type": "Point",
        "coordinates": [
          -89.2589083,
          45.9171666
        ]
      }
    },
    {
      "type": "Feature",
      "properties": {
        "name": "Hidden Harbour Marina"
      },
      "geometry": {
        "type": "Point",
        "coordinates": [
          -76.5546665,
          38.7845286
        ]
      }
    },
    {
      "type": "Feature",
      "properties": {
        "name": "Harour Cove Marina"
      },
      "geometry": {
        "type": "Point",
        "coordinates": [
          -76.5553065,
          38.7831024
        ]
      }
    },
    {
      "type": "Feature",
      "properties": {
        "name": "The Ridge Marina"
      },
      "geometry": {
        "type": "Point",
        "coordinates": [
          -85.9007945,
          32.7306552
        ]
      }
    },
    {
      "type": "Feature",
      "properties": {
        "name": "Port"
      },
      "geometry": {
        "type": "Point",
        "coordinates": [
          -71.8514027,
          42.0304024
        ]
      }
    },
    {
      "type": "Feature",
      "properties": {
        "name": "Port"
      },
      "geometry": {
        "type": "Point",
        "coordinates": [
          -71.8581666,
          42.0429113
        ]
      }
    },
    {
      "type": "Feature",
      "properties": {
        "name": "Mosquito Lake Marina and Boat Launch"
      },
      "geometry": {
        "type": "Point",
        "coordinates": [
          -80.7646577,
          41.3085104
        ]
      }
    },
    {
      "type": "Feature",
      "properties": {
        "name": "Municipal Yacht Basin"
      },
      "geometry": {
        "type": "Point",
        "coordinates": [
          -74.518596,
          39.3826472
        ]
      }
    },
    {
      "type": "Feature",
      "properties": {
        "name": "Yacht Club of Pleasantville"
      },
      "geometry": {
        "type": "Point",
        "coordinates": [
          -74.5178163,
          39.3835328
        ]
      }
    },
    {
      "type": "Feature",
      "properties": {
        "name": "Whitehall Landing"
      },
      "geometry": {
        "type": "Point",
        "coordinates": [
          -86.3507444,
          43.4054941
        ]
      }
    },
    {
      "type": "Feature",
      "properties": {
        "name": "Port"
      },
      "geometry": {
        "type": "Point",
        "coordinates": [
          -83.1530714,
          42.0901949
        ]
      }
    },
    {
      "type": "Feature",
      "properties": {
        "name": "Small Boat Basin"
      },
      "geometry": {
        "type": "Point",
        "coordinates": [
          -118.2692479,
          33.7263028
        ]
      }
    },
    {
      "type": "Feature",
      "properties": {
        "name": "Port"
      },
      "geometry": {
        "type": "Point",
        "coordinates": [
          -85.3853261,
          36.5146825
        ]
      }
    },
    {
      "type": "Feature",
      "properties": {
        "name": "Sun Retreats New Point"
      },
      "geometry": {
        "type": "Point",
        "coordinates": [
          -76.2748813,
          37.3423231
        ]
      }
    },
    {
      "type": "Feature",
      "properties": {
        "name": "Port"
      },
      "geometry": {
        "type": "Point",
        "coordinates": [
          -74.065318,
          40.3540129
        ]
      }
    },
    {
      "type": "Feature",
      "properties": {
        "name": "Dundee Creek Marina"
      },
      "geometry": {
        "type": "Point",
        "coordinates": [
          -76.3582361,
          39.3525358
        ]
      }
    },
    {
      "type": "Feature",
      "properties": {
        "name": "Pier 39 Marina"
      },
      "geometry": {
        "type": "Point",
        "coordinates": [
          -122.4096689,
          37.8098148
        ]
      }
    },
    {
      "type": "Feature",
      "properties": {
        "name": "Hyde Street Harbor"
      },
      "geometry": {
        "type": "Point",
        "coordinates": [
          -122.4191355,
          37.809451
        ]
      }
    },
    {
      "type": "Feature",
      "properties": {
        "name": "Marina Magog"
      },
      "geometry": {
        "type": "Point",
        "coordinates": [
          -72.1543194,
          45.2651572
        ]
      }
    },
    {
      "type": "Feature",
      "properties": {
        "name": "Marina Audet"
      },
      "geometry": {
        "type": "Point",
        "coordinates": [
          -72.1523538,
          45.2642699
        ]
      }
    },
    {
      "type": "Feature",
      "properties": {
        "name": "Port"
      },
      "geometry": {
        "type": "Point",
        "coordinates": [
          -70.9226784,
          42.2520536
        ]
      }
    },
    {
      "type": "Feature",
      "properties": {
        "name": "Smugglers Cove Boat Club"
      },
      "geometry": {
        "type": "Point",
        "coordinates": [
          -79.0596117,
          43.2350923
        ]
      }
    },
    {
      "type": "Feature",
      "properties": {
        "name": "U.S. Army Corps of Engineers"
      },
      "geometry": {
        "type": "Point",
        "coordinates": [
          -90.0270543,
          29.9664106
        ]
      }
    },
    {
      "type": "Feature",
      "properties": {
        "name": "Pitt Meadows Marina"
      },
      "geometry": {
        "type": "Point",
        "coordinates": [
          -122.7084407,
          49.264256
        ]
      }
    },
    {
      "type": "Feature",
      "properties": {
        "name": "Washburn Marina"
      },
      "geometry": {
        "type": "Point",
        "coordinates": [
          -90.8887765,
          46.6677583
        ]
      }
    },
    {
      "type": "Feature",
      "properties": {
        "name": "Tilghman on Chesapeake Community Association Marina"
      },
      "geometry": {
        "type": "Point",
        "coordinates": [
          -76.3313188,
          38.7093032
        ]
      }
    },
    {
      "type": "Feature",
      "properties": {
        "name": "Port of Ilwaco Marina"
      },
      "geometry": {
        "type": "Point",
        "coordinates": [
          -124.0392269,
          46.3039998
        ]
      }
    },
    {
      "type": "Feature",
      "properties": {
        "name": "Port"
      },
      "geometry": {
        "type": "Point",
        "coordinates": [
          -85.6656082,
          30.1509504
        ]
      }
    },
    {
      "type": "Feature",
      "properties": {
        "name": "Port"
      },
      "geometry": {
        "type": "Point",
        "coordinates": [
          -89.5382249,
          40.709926
        ]
      }
    },
    {
      "type": "Feature",
      "properties": {
        "name": "Madison Bay Campground, Marina, and Restaurant"
      },
      "geometry": {
        "type": "Point",
        "coordinates": [
          -76.223556,
          38.5088446
        ]
      }
    },
    {
      "type": "Feature",
      "properties": {
        "name": "Boothbay Harbor Yacht Club"
      },
      "geometry": {
        "type": "Point",
        "coordinates": [
          -69.6444551,
          43.8475952
        ]
      }
    },
    {
      "type": "Feature",
      "properties": {
        "name": "Southport Yacht Club"
      },
      "geometry": {
        "type": "Point",
        "coordinates": [
          -69.6809832,
          43.8193296
        ]
      }
    },
    {
      "type": "Feature",
      "properties": {
        "name": "Hidden Harbor Marina"
      },
      "geometry": {
        "type": "Point",
        "coordinates": [
          -93.0064662,
          44.8418887
        ]
      }
    },
    {
      "type": "Feature",
      "properties": {
        "name": "Sewell's Marina"
      },
      "geometry": {
        "type": "Point",
        "coordinates": [
          -123.2738872,
          49.3768386
        ]
      }
    },
    {
      "type": "Feature",
      "properties": {
        "name": "Pleasants Landing at Lake Anna"
      },
      "geometry": {
        "type": "Point",
        "coordinates": [
          -77.7153859,
          38.0062576
        ]
      }
    },
    {
      "type": "Feature",
      "properties": {
        "name": "Port"
      },
      "geometry": {
        "type": "Point",
        "coordinates": [
          -76.2974143,
          37.0932961
        ]
      }
    },
    {
      "type": "Feature",
      "properties": {
        "name": "Port"
      },
      "geometry": {
        "type": "Point",
        "coordinates": [
          -116.7744505,
          47.5367733
        ]
      }
    },
    {
      "type": "Feature",
      "properties": {
        "name": "Wiscasset Yacht Club"
      },
      "geometry": {
        "type": "Point",
        "coordinates": [
          -69.6659718,
          43.9993874
        ]
      }
    },
    {
      "type": "Feature",
      "properties": {
        "name": "Cornwall Yacht Club"
      },
      "geometry": {
        "type": "Point",
        "coordinates": [
          -73.9980442,
          41.4424257
        ]
      }
    },
    {
      "type": "Feature",
      "properties": {
        "name": "Hayden Lake Marina"
      },
      "geometry": {
        "type": "Point",
        "coordinates": [
          -116.7399786,
          47.7490964
        ]
      }
    },
    {
      "type": "Feature",
      "properties": {
        "name": "Coralville Lake Marina"
      },
      "geometry": {
        "type": "Point",
        "coordinates": [
          -91.5225794,
          41.7272554
        ]
      }
    },
    {
      "type": "Feature",
      "properties": {
        "name": "Port"
      },
      "geometry": {
        "type": "Point",
        "coordinates": [
          -81.3847894,
          29.0108728
        ]
      }
    },
    {
      "type": "Feature",
      "properties": {
        "name": "Port"
      },
      "geometry": {
        "type": "Point",
        "coordinates": [
          -80.9390852,
          29.0910936
        ]
      }
    },
    {
      "type": "Feature",
      "properties": {
        "name": "Pleasant Harbor Marina"
      },
      "geometry": {
        "type": "Point",
        "coordinates": [
          -122.9169002,
          47.6624414
        ]
      }
    },
    {
      "type": "Feature",
      "properties": {
        "name": "Marina Point"
      },
      "geometry": {
        "type": "Point",
        "coordinates": [
          -87.5742583,
          37.9523698
        ]
      }
    },
    {
      "type": "Feature",
      "properties": {
        "name": "Somers Cove Marina"
      },
      "geometry": {
        "type": "Point",
        "coordinates": [
          -75.8568958,
          37.9766976
        ]
      }
    },
    {
      "type": "Feature",
      "properties": {
        "name": "Sea Mark Marine"
      },
      "geometry": {
        "type": "Point",
        "coordinates": [
          -75.8613284,
          37.9806138
        ]
      }
    },
    {
      "type": "Feature",
      "properties": {
        "name": "Silver Lake Marina"
      },
      "geometry": {
        "type": "Point",
        "coordinates": [
          -75.9860056,
          35.1155854
        ]
      }
    },
    {
      "type": "Feature",
      "properties": {
        "name": "Calumet Harbor"
      },
      "geometry": {
        "type": "Point",
        "coordinates": [
          -87.5116229,
          41.7249034
        ]
      }
    },
    {
      "type": "Feature",
      "properties": {
        "name": "California Yacht Marina-Wilmington"
      },
      "geometry": {
        "type": "Point",
        "coordinates": [
          -118.2512675,
          33.7669137
        ]
      }
    },
    {
      "type": "Feature",
      "properties": {
        "name": "Great Lakes Marina"
      },
      "geometry": {
        "type": "Point",
        "coordinates": [
          -86.2915302,
          43.2175268
        ]
      }
    },
    {
      "type": "Feature",
      "properties": {
        "name": "Harvey Cedars Marina"
      },
      "geometry": {
        "type": "Point",
        "coordinates": [
          -74.1404013,
          39.6965294
        ]
      }
    },
    {
      "type": "Feature",
      "properties": {
        "name": "Harvey Cedars Marina – Rentals"
      },
      "geometry": {
        "type": "Point",
        "coordinates": [
          -74.1408801,
          39.6960931
        ]
      }
    },
    {
      "type": "Feature",
      "properties": {
        "name": "Robbie's Loveladies Marina"
      },
      "geometry": {
        "type": "Point",
        "coordinates": [
          -74.1208864,
          39.7377515
        ]
      }
    },
    {
      "type": "Feature",
      "properties": {
        "name": "Grand Mariner Restaurant & Marina"
      },
      "geometry": {
        "type": "Point",
        "coordinates": [
          -88.0934127,
          30.5663395
        ]
      }
    },
    {
      "type": "Feature",
      "properties": {
        "name": "Grand View Marina"
      },
      "geometry": {
        "type": "Point",
        "coordinates": [
          -88.0891046,
          30.5632077
        ]
      }
    },
    {
      "type": "Feature",
      "properties": {
        "name": "Beachcomber Marina & Dry Dock"
      },
      "geometry": {
        "type": "Point",
        "coordinates": [
          -88.0906358,
          30.5624944
        ]
      }
    },
    {
      "type": "Feature",
      "properties": {
        "name": "Port"
      },
      "geometry": {
        "type": "Point",
        "coordinates": [
          -71.0749312,
          42.3579946
        ]
      }
    },
    {
      "type": "Feature",
      "properties": {
        "name": "Diversey Harbor"
      },
      "geometry": {
        "type": "Point",
        "coordinates": [
          -87.6334702,
          41.9295788
        ]
      }
    },
    {
      "type": "Feature",
      "properties": {
        "name": "Monroe Harbor"
      },
      "geometry": {
        "type": "Point",
        "coordinates": [
          -87.6133191,
          41.8761942
        ]
      }
    },
    {
      "type": "Feature",
      "properties": {
        "name": "DuSable Harbor"
      },
      "geometry": {
        "type": "Point",
        "coordinates": [
          -87.6115917,
          41.8856517
        ]
      }
    },
    {
      "type": "Feature",
      "properties": {
        "name": "Belmont Harbor"
      },
      "geometry": {
        "type": "Point",
        "coordinates": [
          -87.6379541,
          41.9434141
        ]
      }
    },
    {
      "type": "Feature",
      "properties": {
        "name": "Montrose Harbor"
      },
      "geometry": {
        "type": "Point",
        "coordinates": [
          -87.6386328,
          41.9620837
        ]
      }
    },
    {
      "type": "Feature",
      "properties": {
        "name": "Burnham Harbor"
      },
      "geometry": {
        "type": "Point",
        "coordinates": [
          -87.6114362,
          41.8604204
        ]
      }
    },
    {
      "type": "Feature",
      "properties": {
        "name": "31st Street Harbor"
      },
      "geometry": {
        "type": "Point",
        "coordinates": [
          -87.6053932,
          41.8361586
        ]
      }
    },
    {
      "type": "Feature",
      "properties": {
        "name": "Jackson Park Outer Harbor"
      },
      "geometry": {
        "type": "Point",
        "coordinates": [
          -87.5735735,
          41.7777275
        ]
      }
    },
    {
      "type": "Feature",
      "properties": {
        "name": "Jackson Park Inner Harbor"
      },
      "geometry": {
        "type": "Point",
        "coordinates": [
          -87.5773933,
          41.7781712
        ]
      }
    },
    {
      "type": "Feature",
      "properties": {
        "name": "59th Street Harbor"
      },
      "geometry": {
        "type": "Point",
        "coordinates": [
          -87.5793917,
          41.7878476
        ]
      }
    },
    {
      "type": "Feature",
      "properties": {
        "name": "Myrtle Beach Yacht Club"
      },
      "geometry": {
        "type": "Point",
        "coordinates": [
          -78.6383375,
          33.8631733
        ]
      }
    },
    {
      "type": "Feature",
      "properties": {
        "name": "American Creek Marina"
      },
      "geometry": {
        "type": "Point",
        "coordinates": [
          -99.3255317,
          43.8150129
        ]
      }
    },
    {
      "type": "Feature",
      "properties": {
        "name": "Port"
      },
      "geometry": {
        "type": "Point",
        "coordinates": [
          -73.9596093,
          41.1929856
        ]
      }
    },
    {
      "type": "Feature",
      "properties": {
        "name": "Safe Harbor Haverstraw"
      },
      "geometry": {
        "type": "Point",
        "coordinates": [
          -73.966243,
          41.2175191
        ]
      }
    },
    {
      "type": "Feature",
      "properties": {
        "name": "Port"
      },
      "geometry": {
        "type": "Point",
        "coordinates": [
          -73.9693697,
          41.2265432
        ]
      }
    },
    {
      "type": "Feature",
      "properties": {
        "name": "Garrison Yacht Club"
      },
      "geometry": {
        "type": "Point",
        "coordinates": [
          -73.9480311,
          41.3820047
        ]
      }
    },
    {
      "type": "Feature",
      "properties": {
        "name": "Ridley Township Municipal Marina"
      },
      "geometry": {
        "type": "Point",
        "coordinates": [
          -75.3130447,
          39.871262
        ]
      }
    },
    {
      "type": "Feature",
      "properties": {
        "name": "Boston Harbor Marina"
      },
      "geometry": {
        "type": "Point",
        "coordinates": [
          -122.9045335,
          47.1406618
        ]
      }
    },
    {
      "type": "Feature",
      "properties": {
        "name": "Surf City Yacht Club"
      },
      "geometry": {
        "type": "Point",
        "coordinates": [
          -74.1742821,
          39.6639075
        ]
      }
    },
    {
      "type": "Feature",
      "properties": {
        "name": "Black Rock Marina"
      },
      "geometry": {
        "type": "Point",
        "coordinates": [
          -116.9002535,
          47.5088617
        ]
      }
    },
    {
      "type": "Feature",
      "properties": {
        "name": "Strawberry Bay Marina"
      },
      "geometry": {
        "type": "Point",
        "coordinates": [
          -111.1549117,
          40.1785339
        ]
      }
    },
    {
      "type": "Feature",
      "properties": {
        "name": "Soldier Creek Marian"
      },
      "geometry": {
        "type": "Point",
        "coordinates": [
          -111.0508204,
          40.157382
        ]
      }
    },
    {
      "type": "Feature",
      "properties": {
        "name": "Port"
      },
      "geometry": {
        "type": "Point",
        "coordinates": [
          -111.03533,
          40.1296643
        ]
      }
    },
    {
      "type": "Feature",
      "properties": {
        "name": "yes"
      },
      "geometry": {
        "type": "Point",
        "coordinates": [
          -75.6171044,
          38.058132
        ]
      }
    },
    {
      "type": "Feature",
      "properties": {
        "name": "Silver Islet Marina"
      },
      "geometry": {
        "type": "Point",
        "coordinates": [
          -88.8188609,
          48.3309311
        ]
      }
    },
    {
      "type": "Feature",
      "properties": {
        "name": "Port"
      },
      "geometry": {
        "type": "Point",
        "coordinates": [
          -119.0902789,
          46.2185166
        ]
      }
    },
    {
      "type": "Feature",
      "properties": {
        "name": "Dockside Anchorages (70.5)"
      },
      "geometry": {
        "type": "Point",
        "coordinates": [
          -90.0195423,
          29.7849841
        ]
      }
    },
    {
      "type": "Feature",
      "properties": {
        "name": "Delta Marine"
      },
      "geometry": {
        "type": "Point",
        "coordinates": [
          -89.6021895,
          29.3862414
        ]
      }
    },
    {
      "type": "Feature",
      "properties": {
        "name": "Port"
      },
      "geometry": {
        "type": "Point",
        "coordinates": [
          -89.7731412,
          43.6336395
        ]
      }
    },
    {
      "type": "Feature",
      "properties": {
        "name": "Belle Chasse Marine Transporation - Davant Launch"
      },
      "geometry": {
        "type": "Point",
        "coordinates": [
          -89.8614349,
          29.6015623
        ]
      }
    },
    {
      "type": "Feature",
      "properties": {
        "name": "Wilmette Harbor"
      },
      "geometry": {
        "type": "Point",
        "coordinates": [
          -87.6832948,
          42.0765564
        ]
      }
    },
    {
      "type": "Feature",
      "properties": {
        "name": "Janes Island State Park"
      },
      "geometry": {
        "type": "Point",
        "coordinates": [
          -75.8483242,
          38.0100034
        ]
      }
    },
    {
      "type": "Feature",
      "properties": {
        "name": "Esquimalt"
      },
      "geometry": {
        "type": "Point",
        "coordinates": [
          -123.4465527,
          48.4379524
        ]
      }
    },
    {
      "type": "Feature",
      "properties": {
        "name": "Windjammer Marina"
      },
      "geometry": {
        "type": "Point",
        "coordinates": [
          -84.8424703,
          45.4237402
        ]
      }
    },
    {
      "type": "Feature",
      "properties": {
        "name": "Guntersville Marina"
      },
      "geometry": {
        "type": "Point",
        "coordinates": [
          -86.2746204,
          34.3600301
        ]
      }
    },
    {
      "type": "Feature",
      "properties": {
        "name": "Yacht Basin Marina"
      },
      "geometry": {
        "type": "Point",
        "coordinates": [
          -86.1882488,
          42.7898897
        ]
      }
    },
    {
      "type": "Feature",
      "properties": {
        "name": "Lake Forest Marina"
      },
      "geometry": {
        "type": "Point",
        "coordinates": [
          -87.9168904,
          30.6376324
        ]
      }
    },
    {
      "type": "Feature",
      "properties": {
        "name": "Fly Creek Marina"
      },
      "geometry": {
        "type": "Point",
        "coordinates": [
          -87.9013985,
          30.5420819
        ]
      }
    },
    {
      "type": "Feature",
      "properties": {
        "name": "Pier Avenue Boat Launch"
      },
      "geometry": {
        "type": "Point",
        "coordinates": [
          -87.9154223,
          30.5176192
        ]
      }
    },
    {
      "type": "Feature",
      "properties": {
        "name": "Grand Hotel Marina"
      },
      "geometry": {
        "type": "Point",
        "coordinates": [
          -87.9334132,
          30.4862538
        ]
      }
    },
    {
      "type": "Feature",
      "properties": {
        "name": "Port"
      },
      "geometry": {
        "type": "Point",
        "coordinates": [
          -84.1307942,
          35.8658481
        ]
      }
    },
    {
      "type": "Feature",
      "properties": {
        "name": "Coinjock Marina"
      },
      "geometry": {
        "type": "Point",
        "coordinates": [
          -75.9482403,
          36.3489774
        ]
      }
    },
    {
      "type": "Feature",
      "properties": {
        "name": "Port"
      },
      "geometry": {
        "type": "Point",
        "coordinates": [
          -81.7103078,
          30.038918
        ]
      }
    },
    {
      "type": "Feature",
      "properties": {
        "name": "Leesvile Lake Southfork Marina"
      },
      "geometry": {
        "type": "Point",
        "coordinates": [
          -81.1855266,
          40.4653878
        ]
      }
    },
    {
      "type": "Feature",
      "properties": {
        "name": "Starlite Marina"
      },
      "geometry": {
        "type": "Point",
        "coordinates": [
          -79.9718379,
          46.3346303
        ]
      }
    },
    {
      "type": "Feature",
      "properties": {
        "name": "Afton Marina"
      },
      "geometry": {
        "type": "Point",
        "coordinates": [
          -92.7775846,
          44.9040889
        ]
      }
    },
    {
      "type": "Feature",
      "properties": {
        "name": "Devon Yacht Club"
      },
      "geometry": {
        "type": "Point",
        "coordinates": [
          -72.1053947,
          40.991495
        ]
      }
    },
    {
      "type": "Feature",
      "properties": {
        "name": "Shawnee State Park Marina"
      },
      "geometry": {
        "type": "Point",
        "coordinates": [
          -83.1085553,
          38.6766638
        ]
      }
    },
    {
      "type": "Feature",
      "properties": {
        "name": "New London Municipal Dock"
      },
      "geometry": {
        "type": "Point",
        "coordinates": [
          -72.0917145,
          41.3540717
        ]
      }
    },
    {
      "type": "Feature",
      "properties": {
        "name": "Rivertowne"
      },
      "geometry": {
        "type": "Point",
        "coordinates": [
          -84.4296662,
          39.0920133
        ]
      }
    },
    {
      "type": "Feature",
      "properties": {
        "name": "Four Seasons Marina"
      },
      "geometry": {
        "type": "Point",
        "coordinates": [
          -84.4268247,
          39.0859063
        ]
      }
    },
    {
      "type": "Feature",
      "properties": {
        "name": "St Petersburg Municipal Marina"
      },
      "geometry": {
        "type": "Point",
        "coordinates": [
          -82.629037,
          27.7704574
        ]
      }
    },
    {
      "type": "Feature",
      "properties": {
        "name": "Hat Island Marina"
      },
      "geometry": {
        "type": "Point",
        "coordinates": [
          -122.3227757,
          48.0201507
        ]
      }
    },
    {
      "type": "Feature",
      "properties": {
        "name": "Marina Bacochibampo"
      },
      "geometry": {
        "type": "Point",
        "coordinates": [
          -110.946495,
          27.926618
        ]
      }
    },
    {
      "type": "Feature",
      "properties": {
        "name": "Royal St-Lawrence Yacht Club"
      },
      "geometry": {
        "type": "Point",
        "coordinates": [
          -73.7535027,
          45.4371196
        ]
      }
    },
    {
      "type": "Feature",
      "properties": {
        "name": "Lakeview Marina"
      },
      "geometry": {
        "type": "Point",
        "coordinates": [
          -82.9311134,
          42.3404623
        ]
      }
    },
    {
      "type": "Feature",
      "properties": {
        "name": "South Beach Harbor"
      },
      "geometry": {
        "type": "Point",
        "coordinates": [
          -122.3860813,
          37.780153
        ]
      }
    },
    {
      "type": "Feature",
      "properties": {
        "name": "Port"
      },
      "geometry": {
        "type": "Point",
        "coordinates": [
          -93.3085206,
          44.9253513
        ]
      }
    },
    {
      "type": "Feature",
      "properties": {
        "name": "Collins Bay Marina"
      },
      "geometry": {
        "type": "Point",
        "coordinates": [
          -76.6042146,
          44.2389082
        ]
      }
    },
    {
      "type": "Feature",
      "properties": {
        "name": "NFTA Small Boat Harbor"
      },
      "geometry": {
        "type": "Point",
        "coordinates": [
          -78.864631,
          42.8494278
        ]
      }
    },
    {
      "type": "Feature",
      "properties": {
        "name": "River Place Marina"
      },
      "geometry": {
        "type": "Point",
        "coordinates": [
          -122.6724441,
          45.5102932
        ]
      }
    },
    {
      "type": "Feature",
      "properties": {
        "name": "Belle Haven"
      },
      "geometry": {
        "type": "Point",
        "coordinates": [
          -77.0485522,
          38.777182
        ]
      }
    },
    {
      "type": "Feature",
      "properties": {
        "name": "Port"
      },
      "geometry": {
        "type": "Point",
        "coordinates": [
          -79.3119839,
          43.6589557
        ]
      }
    },
    {
      "type": "Feature",
      "properties": {
        "name": "Marina del Rey"
      },
      "geometry": {
        "type": "Point",
        "coordinates": [
          -118.4510728,
          33.9723884
        ]
      }
    },
    {
      "type": "Feature",
      "properties": {
        "name": "Port"
      },
      "geometry": {
        "type": "Point",
        "coordinates": [
          -121.9791937,
          37.4258883
        ]
      }
    },
    {
      "type": "Feature",
      "properties": {
        "name": "Davis Islands Yacht Club"
      },
      "geometry": {
        "type": "Point",
        "coordinates": [
          -82.4499825,
          27.9083573
        ]
      }
    },
    {
      "type": "Feature",
      "properties": {
        "name": "Metropolitan Yacht Club"
      },
      "geometry": {
        "type": "Point",
        "coordinates": [
          -70.962507,
          42.230817
        ]
      }
    },
    {
      "type": "Feature",
      "properties": {
        "name": "Gloucester Landing"
      },
      "geometry": {
        "type": "Point",
        "coordinates": [
          -70.6622768,
          42.6110683
        ]
      }
    },
    {
      "type": "Feature",
      "properties": {
        "name": "Salt Water Club"
      },
      "geometry": {
        "type": "Point",
        "coordinates": [
          -70.8916316,
          42.3065825
        ]
      }
    },
    {
      "type": "Feature",
      "properties": {
        "name": "Mill River Marine"
      },
      "geometry": {
        "type": "Point",
        "coordinates": [
          -70.790349,
          42.2384589
        ]
      }
    },
    {
      "type": "Feature",
      "properties": {
        "name": "Bardens Boatyard"
      },
      "geometry": {
        "type": "Point",
        "coordinates": [
          -70.7616479,
          41.7042586
        ]
      }
    },
    {
      "type": "Feature",
      "properties": {
        "name": "Cape Cod Canal Access"
      },
      "geometry": {
        "type": "Point",
        "coordinates": [
          -70.6185535,
          41.7455533
        ]
      }
    },
    {
      "type": "Feature",
      "properties": {
        "name": "Hyannis Marina"
      },
      "geometry": {
        "type": "Point",
        "coordinates": [
          -70.2743075,
          41.6500291
        ]
      }
    },
    {
      "type": "Feature",
      "properties": {
        "name": "Mystic Wellington Yacht Club"
      },
      "geometry": {
        "type": "Point",
        "coordinates": [
          -71.0798886,
          42.4011189
        ]
      }
    },
    {
      "type": "Feature",
      "properties": {
        "name": "Cape Cod Canal Access"
      },
      "geometry": {
        "type": "Point",
        "coordinates": [
          -70.6151644,
          41.7440486
        ]
      }
    },
    {
      "type": "Feature",
      "properties": {
        "name": "Port"
      },
      "geometry": {
        "type": "Point",
        "coordinates": [
          -117.1742875,
          32.724599
        ]
      }
    },
    {
      "type": "Feature",
      "properties": {
        "name": "Port de Québec - Secteur L'Estuaire"
      },
      "geometry": {
        "type": "Point",
        "coordinates": [
          -71.2053868,
          46.8222509
        ]
      }
    },
    {
      "type": "Feature",
      "properties": {
        "name": "Port Credit Harbour Marina"
      },
      "geometry": {
        "type": "Point",
        "coordinates": [
          -79.5785804,
          43.5499951
        ]
      }
    },
    {
      "type": "Feature",
      "properties": {
        "name": "Hall's Creek Boating Access Area"
      },
      "geometry": {
        "type": "Point",
        "coordinates": [
          -76.2757279,
          36.2192291
        ]
      }
    },
    {
      "type": "Feature",
      "properties": {
        "name": "Bowsertown Road Boating Access Area"
      },
      "geometry": {
        "type": "Point",
        "coordinates": [
          -75.6766151,
          35.8976251
        ]
      }
    },
    {
      "type": "Feature",
      "properties": {
        "name": "Marina Quay West"
      },
      "geometry": {
        "type": "Point",
        "coordinates": [
          -79.3934474,
          43.6362316
        ]
      }
    },
    {
      "type": "Feature",
      "properties": {
        "name": "Holiday On Lake Lanier"
      },
      "geometry": {
        "type": "Point",
        "coordinates": [
          -84.0039605,
          34.1718653
        ]
      }
    },
    {
      "type": "Feature",
      "properties": {
        "name": "National Yacht Club"
      },
      "geometry": {
        "type": "Point",
        "coordinates": [
          -79.4025187,
          43.6327405
        ]
      }
    },
    {
      "type": "Feature",
      "properties": {
        "name": "Port Angeles Boat Haven"
      },
      "geometry": {
        "type": "Point",
        "coordinates": [
          -123.453425,
          48.1257011
        ]
      }
    },
    {
      "type": "Feature",
      "properties": {
        "name": "Monterey Marina"
      },
      "geometry": {
        "type": "Point",
        "coordinates": [
          -121.8910401,
          36.6032907
        ]
      }
    },
    {
      "type": "Feature",
      "properties": {
        "name": "Tottenville Marina"
      },
      "geometry": {
        "type": "Point",
        "coordinates": [
          -74.2482245,
          40.5166062
        ]
      }
    },
    {
      "type": "Feature",
      "properties": {
        "name": "Port"
      },
      "geometry": {
        "type": "Point",
        "coordinates": [
          -74.1368845,
          40.5452195
        ]
      }
    },
    {
      "type": "Feature",
      "properties": {
        "name": "Moonbeam Great Kills Marina"
      },
      "geometry": {
        "type": "Point",
        "coordinates": [
          -74.131726,
          40.5381048
        ]
      }
    },
    {
      "type": "Feature",
      "properties": {
        "name": "Birdland Marina"
      },
      "geometry": {
        "type": "Point",
        "coordinates": [
          -93.6119894,
          41.6110853
        ]
      }
    },
    {
      "type": "Feature",
      "properties": {
        "name": "Yacht Club de Québec"
      },
      "geometry": {
        "type": "Point",
        "coordinates": [
          -71.2354231,
          46.783906
        ]
      }
    },
    {
      "type": "Feature",
      "properties": {
        "name": "Port de Québec - Secteur Anse au Foulon / Port of Québec - Anse au Foulon Sector"
      },
      "geometry": {
        "type": "Point",
        "coordinates": [
          -71.2242758,
          46.7937535
        ]
      }
    },
    {
      "type": "Feature",
      "properties": {
        "name": "Bert Jabin's Yacht Yard"
      },
      "geometry": {
        "type": "Point",
        "coordinates": [
          -76.4820047,
          38.95987
        ]
      }
    },
    {
      "type": "Feature",
      "properties": {
        "name": "Von Dohln Marina"
      },
      "geometry": {
        "type": "Point",
        "coordinates": [
          -73.9681205,
          40.8393507
        ]
      }
    },
    {
      "type": "Feature",
      "properties": {
        "name": "Hans Pederson & Sons Marina"
      },
      "geometry": {
        "type": "Point",
        "coordinates": [
          -74.2081429,
          40.4359694
        ]
      }
    },
    {
      "type": "Feature",
      "properties": {
        "name": "Des Moines Marina"
      },
      "geometry": {
        "type": "Point",
        "coordinates": [
          -122.330302,
          47.3993421
        ]
      }
    },
    {
      "type": "Feature",
      "properties": {
        "name": "Port"
      },
      "geometry": {
        "type": "Point",
        "coordinates": [
          -74.151518,
          39.8674799
        ]
      }
    },
    {
      "type": "Feature",
      "properties": {
        "name": "Port"
      },
      "geometry": {
        "type": "Point",
        "coordinates": [
          -74.1569219,
          39.861401
        ]
      }
    },
    {
      "type": "Feature",
      "properties": {
        "name": "Port"
      },
      "geometry": {
        "type": "Point",
        "coordinates": [
          -74.1559581,
          39.8680523
        ]
      }
    },
    {
      "type": "Feature",
      "properties": {
        "name": "Port"
      },
      "geometry": {
        "type": "Point",
        "coordinates": [
          -74.1920649,
          39.9454131
        ]
      }
    },
    {
      "type": "Feature",
      "properties": {
        "name": "Port"
      },
      "geometry": {
        "type": "Point",
        "coordinates": [
          -74.189972,
          39.8348135
        ]
      }
    },
    {
      "type": "Feature",
      "properties": {
        "name": "Port"
      },
      "geometry": {
        "type": "Point",
        "coordinates": [
          -83.2526826,
          41.6418281
        ]
      }
    },
    {
      "type": "Feature",
      "properties": {
        "name": "Lake Hopatcong Marine (at Sand Bar)"
      },
      "geometry": {
        "type": "Point",
        "coordinates": [
          -74.621314,
          40.9429491
        ]
      }
    },
    {
      "type": "Feature",
      "properties": {
        "name": "Brenner 75 Marine"
      },
      "geometry": {
        "type": "Point",
        "coordinates": [
          -83.4829403,
          41.6868303
        ]
      }
    },
    {
      "type": "Feature",
      "properties": {
        "name": "Reed Point Marina"
      },
      "geometry": {
        "type": "Point",
        "coordinates": [
          -122.8844755,
          49.2918744
        ]
      }
    },
    {
      "type": "Feature",
      "properties": {
        "name": "Vancouver Rowing Club"
      },
      "geometry": {
        "type": "Point",
        "coordinates": [
          -123.1322814,
          49.2959368
        ]
      }
    },
    {
      "type": "Feature",
      "properties": {
        "name": "Fisherman's Wharf"
      },
      "geometry": {
        "type": "Point",
        "coordinates": [
          -123.1381696,
          49.2728039
        ]
      }
    },
    {
      "type": "Feature",
      "properties": {
        "name": "Coal Harbour Marina"
      },
      "geometry": {
        "type": "Point",
        "coordinates": [
          -123.1259115,
          49.29165
        ]
      }
    },
    {
      "type": "Feature",
      "properties": {
        "name": "Royal Vancouver Yacht Club (Coal Harbour)"
      },
      "geometry": {
        "type": "Point",
        "coordinates": [
          -123.1272466,
          49.2953325
        ]
      }
    },
    {
      "type": "Feature",
      "properties": {
        "name": "Harbour Cruises"
      },
      "geometry": {
        "type": "Point",
        "coordinates": [
          -123.132865,
          49.2946722
        ]
      }
    },
    {
      "type": "Feature",
      "properties": {
        "name": "Spruce Harbour Marina"
      },
      "geometry": {
        "type": "Point",
        "coordinates": [
          -123.1283294,
          49.2687585
        ]
      }
    },
    {
      "type": "Feature",
      "properties": {
        "name": "Heather Civic Marina"
      },
      "geometry": {
        "type": "Point",
        "coordinates": [
          -123.1198027,
          49.2687848
        ]
      }
    },
    {
      "type": "Feature",
      "properties": {
        "name": "Port"
      },
      "geometry": {
        "type": "Point",
        "coordinates": [
          -122.9471683,
          49.3276862
        ]
      }
    },
    {
      "type": "Feature",
      "properties": {
        "name": "Mosquito Creek Marina"
      },
      "geometry": {
        "type": "Point",
        "coordinates": [
          -123.090471,
          49.3129533
        ]
      }
    },
    {
      "type": "Feature",
      "properties": {
        "name": "Brownes Ravine Marina"
      },
      "geometry": {
        "type": "Point",
        "coordinates": [
          -121.0992145,
          38.7160953
        ]
      }
    },
    {
      "type": "Feature",
      "properties": {
        "name": "Port of Edmonds Marina"
      },
      "geometry": {
        "type": "Point",
        "coordinates": [
          -122.3910311,
          47.8080873
        ]
      }
    },
    {
      "type": "Feature",
      "properties": {
        "name": "Mystic Downtown Marina"
      },
      "geometry": {
        "type": "Point",
        "coordinates": [
          -71.9715661,
          41.3510175
        ]
      }
    },
    {
      "type": "Feature",
      "properties": {
        "name": "Port"
      },
      "geometry": {
        "type": "Point",
        "coordinates": [
          -123.1246667,
          49.2946954
        ]
      }
    },
    {
      "type": "Feature",
      "properties": {
        "name": "Oyster Point Marina"
      },